[
   {
      "id": 116119,
      "name": "Mallorca Restaurant",
      "address": "2228 E Carson St",
      "city": "Pittsburgh",
      "state": "PA",
      "area": "Pittsburgh",
      "postal_code": "15203",
      "country": "US",
      "phone": "4124881818x",
      "lat": 40.428168,
      "lng": -79.973369,
      "price": 3,
      "reserve_url": "http://www.opentable.com/single.aspx?rid=116119",
      "mobile_reserve_url": "http://mobile.opentable.com/opentable/?restId=116119",
      "image_url": "https://www.opentable.com/img/restimages/116119.jpg"
   },
   {
      "id": 48133,
      "name": "Ditka's Restaurant",
      "address": "One Robinson Plaza",
      "city": "Pittsburgh",
      "state": "PA",
      "area": "Pittsburgh",
      "postal_code": "15205",
      "country": "US",
      "phone": "4127221555",
      "lat": 40.448319,
      "lng": -80.163031,
      "price": 3,
      "reserve_url": "http://www.opentable.com/single.aspx?rid=48133",
      "mobile_reserve_url": "http://mobile.opentable.com/opentable/?restId=48133",
      "image_url": "https://www.opentable.com/img/restimages/48133.jpg"
   },
   {
      "id": 3697,
      "name": "Casbah",
      "address": "229 South Highland Ave",
      "city": "Pittsburgh",
      "state": "PA",
      "area": "Pittsburgh",
      "postal_code": "15206",
      "country": "US",
      "phone": "4126615656",
      "lat": 40.4584,
      "lng": -79.9251,
      "price": 3,
      "reserve_url": "http://www.opentable.com/single.aspx?rid=3697",
      "mobile_reserve_url": "http://mobile.opentable.com/opentable/?restId=3697",
      "image_url": "https://www.opentable.com/img/restimages/3697.jpg"
   },
   {
      "id": 33529,
      "name": "Joseph Tambellini",
      "address": "5701 Bryant Street",
      "city": "Pittsburgh",
      "state": "PA",
      "area": "Pittsburgh",
      "postal_code": "15206",
      "country": "US",
      "phone": "412-665-9000x",
      "lat": 40.47652,
      "lng": -79.921498,
      "price": 3,
      "reserve_url": "http://www.opentable.com/single.aspx?rid=33529",
      "mobile_reserve_url": "http://mobile.opentable.com/opentable/?restId=33529",
      "image_url": "https://www.opentable.com/img/restimages/33529.jpg"
   },
   {
      "id": 117856,
      "name": "LeMont Restaurant",
      "address": "1114 Grandview Ave",
      "city": "Pittsburgh",
      "state": "PA",
      "area": "Pittsburgh",
      "postal_code": "15211",
      "country": "US",
      "phone": "4124313100",
      "lat": 40.437786,
      "lng": -80.017798,
      "price": 3,
      "reserve_url": "http://www.opentable.com/single.aspx?rid=117856",
      "mobile_reserve_url": "http://mobile.opentable.com/opentable/?restId=117856",
      "image_url": "https://www.opentable.com/img/restimages/117856.jpg"
   },
   {
      "id": 19828,
      "name": "Isabela on Grandview",
      "address": "1318 Grandview Avenue",
      "city": "Pittsburgh",
      "state": "PA",
      "area": "Pittsburgh",
      "postal_code": "15211",
      "country": "US",
      "phone": "4124315882x",
      "lat": 40.438612,
      "lng": -80.019896,
      "price": 4,
      "reserve_url": "http://www.opentable.com/single.aspx?rid=19828",
      "mobile_reserve_url": "http://mobile.opentable.com/opentable/?restId=19828",
      "image_url": "https://www.opentable.com/img/restimages/19828.jpg"
   },
   {
      "id": 129316,
      "name": "Altius",
      "address": "1230 Grandview Avenue",
      "city": "Pittsburgh",
      "state": "PA",
      "area": "Pittsburgh",
      "postal_code": "15211",
      "country": "US",
      "phone": "4129044442x",
      "lat": 40.438556,
      "lng": -80.019298,
      "price": 3,
      "reserve_url": "http://www.opentable.com/single.aspx?rid=129316",
      "mobile_reserve_url": "http://mobile.opentable.com/opentable/?restId=129316",
      "image_url": "https://www.opentable.com/img/restimages/129316.jpg"
   },
   {
      "id": 20350,
      "name": "Monterey Bay Fish Grotto - Mt. Washington",
      "address": "1411 Grandview Avenue",
      "city": "Pittsburgh",
      "state": "PA",
      "area": "Pittsburgh",
      "postal_code": "15211",
      "country": "US",
      "phone": "4124814414x",
      "lat": 40.439264,
      "lng": -80.021369,
      "price": 3,
      "reserve_url": "http://www.opentable.com/single.aspx?rid=20350",
      "mobile_reserve_url": "http://mobile.opentable.com/opentable/?restId=20350",
      "image_url": "https://www.opentable.com/img/restimages/20350.jpg"
   },
   {
      "id": 50608,
      "name": "Andrew's Steak and Seafood",
      "address": "777 Casino Drive",
      "city": "Pittsburgh",
      "state": "PA",
      "area": "Pittsburgh",
      "postal_code": "15212",
      "country": "US",
      "phone": "4122317777x3106",
      "lat": 40.447395,
      "lng": -80.022933,
      "price": 3,
      "reserve_url": "http://www.opentable.com/single.aspx?rid=50608",
      "mobile_reserve_url": "http://mobile.opentable.com/opentable/?restId=50608",
      "image_url": "https://www.opentable.com/img/restimages/50608.jpg"
   },
   {
      "id": 22969,
      "name": "Grand Concourse",
      "address": "100 West Station Square Drive",
      "city": "Pittsburgh",
      "state": "PA",
      "area": "Pittsburgh",
      "postal_code": "15219",
      "country": "US",
      "phone": "4122611717",
      "lat": 40.432751,
      "lng": -80.003278,
      "price": 3,
      "reserve_url": "http://www.opentable.com/single.aspx?rid=22969",
      "mobile_reserve_url": "http://mobile.opentable.com/opentable/?restId=22969",
      "image_url": "https://www.opentable.com/img/restimages/22969.jpg"
   },
   {
      "id": 7366,
      "name": "The Carlton",
      "address": "500 Grant Street",
      "city": "Pittsburgh",
      "state": "PA",
      "area": "Pittsburgh",
      "postal_code": "15219",
      "country": "US",
      "phone": "4123914099",
      "lat": 40.439444,
      "lng": -79.996907,
      "price": 3,
      "reserve_url": "http://www.opentable.com/single.aspx?rid=7366",
      "mobile_reserve_url": "http://mobile.opentable.com/opentable/?restId=7366",
      "image_url": "https://www.opentable.com/img/restimages/7366.jpg"
   },
   {
      "id": 95770,
      "name": "Texas de Brazil - Pittsburgh",
      "address": "240 W. Station Square Drive",
      "city": "Pittsburgh",
      "state": "PA",
      "area": "Pittsburgh",
      "postal_code": "15219",
      "country": "US",
      "phone": "4122304004x",
      "lat": 40.433949,
      "lng": -80.00536,
      "price": 3,
      "reserve_url": "http://www.opentable.com/single.aspx?rid=95770",
      "mobile_reserve_url": "http://mobile.opentable.com/opentable/?restId=95770",
      "image_url": "https://www.opentable.com/img/restimages/95770.jpg"
   },
   {
      "id": 106045,
      "name": "Il Pizzaiolo - Pittsburgh",
      "address": "8 Market Square",
      "city": "Pittsburgh",
      "state": "PA",
      "area": "Pittsburgh",
      "postal_code": "15222",
      "country": "US",
      "phone": "4125755858",
      "lat": 40.440291,
      "lng": -80.002148,
      "price": 3,
      "reserve_url": "http://www.opentable.com/single.aspx?rid=106045",
      "mobile_reserve_url": "http://mobile.opentable.com/opentable/?restId=106045",
      "image_url": "https://www.opentable.com/img/restimages/106045.jpg"
   },
   {
      "id": 3204,
      "name": "ELEVEN",
      "address": "1150 Smallman Street",
      "city": "Pittsburgh",
      "state": "PA",
      "area": "Pittsburgh",
      "postal_code": "15222",
      "country": "US",
      "phone": "4122015656",
      "lat": 40.4459,
      "lng": -79.9934,
      "price": 4,
      "reserve_url": "http://www.opentable.com/single.aspx?rid=3204",
      "mobile_reserve_url": "http://mobile.opentable.com/opentable/?restId=3204",
      "image_url": "https://www.opentable.com/img/restimages/3204.jpg"
   },
   {
      "id": 14047,
      "name": "The Capital Grille - Pittsburgh",
      "address": "301 5th Avenue",
      "city": "Pittsburgh",
      "state": "PA",
      "area": "Pittsburgh",
      "postal_code": "15222",
      "country": "US",
      "phone": "4123389100x",
      "lat": 40.440783,
      "lng": -79.999668,
      "price": 4,
      "reserve_url": "http://www.opentable.com/single.aspx?rid=14047",
      "mobile_reserve_url": "http://mobile.opentable.com/opentable/?restId=14047",
      "image_url": "https://www.opentable.com/img/restimages/14047.jpg"
   },
   {
      "id": 5507,
      "name": "Ruth's Chris Steak House - Pittsburgh",
      "address": "6 PPG Place",
      "city": "Pittsburgh",
      "state": "PA",
      "area": "Pittsburgh",
      "postal_code": "15222",
      "country": "US",
      "phone": "4123914800",
      "lat": 40.439764,
      "lng": -80.003172,
      "price": 4,
      "reserve_url": "http://www.opentable.com/single.aspx?rid=5507",
      "mobile_reserve_url": "http://mobile.opentable.com/opentable/?restId=5507",
      "image_url": "https://www.opentable.com/img/restimages/5507.jpg"
   },
   {
      "id": 11941,
      "name": "Six Penn Kitchen",
      "address": "146 Sixth Street",
      "city": "Pittsburgh",
      "state": "PA",
      "area": "Pittsburgh",
      "postal_code": "15222",
      "country": "US",
      "phone": "4125667366",
      "lat": 40.442822,
      "lng": -80.002382,
      "price": 3,
      "reserve_url": "http://www.opentable.com/single.aspx?rid=11941",
      "mobile_reserve_url": "http://mobile.opentable.com/opentable/?restId=11941",
      "image_url": "https://www.opentable.com/img/restimages/11941.jpg"
   },
   {
      "id": 3024,
      "name": "Morton's The Steakhouse - Pittsburgh",
      "address": "EQT Plaza, 625 Liberty Avenue",
      "city": "Pittsburgh",
      "state": "PA",
      "area": "Pittsburgh",
      "postal_code": "15222",
      "country": "US",
      "phone": "4122617141",
      "lat": 40.442145,
      "lng": -80.000979,
      "price": 4,
      "reserve_url": "http://www.opentable.com/single.aspx?rid=3024",
      "mobile_reserve_url": "http://mobile.opentable.com/opentable/?restId=3024",
      "image_url": "https://www.opentable.com/img/restimages/3024.jpg"
   },
   {
      "id": 26284,
      "name": "Cioppino",
      "address": "2350 Railroad Street",
      "city": "Pittsburgh",
      "state": "PA",
      "area": "Pittsburgh",
      "postal_code": "15222",
      "country": "US",
      "phone": "4122816593",
      "lat": 40.454458,
      "lng": -79.982722,
      "price": 3,
      "reserve_url": "http://www.opentable.com/single.aspx?rid=26284",
      "mobile_reserve_url": "http://mobile.opentable.com/opentable/?restId=26284",
      "image_url": "https://www.opentable.com/img/restimages/26284.jpg"
   },
   {
      "id": 114637,
      "name": "Eddie Merlot's - Pittsburgh",
      "address": "444 Liberty Ave",
      "city": "Pittsburgh",
      "state": "PA",
      "area": "Pittsburgh",
      "postal_code": "15222",
      "country": "US",
      "phone": "4122357676",
      "lat": 40.440824,
      "lng": -80.004628,
      "price": 3,
      "reserve_url": "http://www.opentable.com/single.aspx?rid=114637",
      "mobile_reserve_url": "http://mobile.opentable.com/opentable/?restId=114637",
      "image_url": "https://www.opentable.com/img/restimages/114637.jpg"
   },
   {
      "id": 77836,
      "name": "Vallozzi's Pittsburgh",
      "address": "220 Fifth Ave",
      "city": "Pittsburgh",
      "state": "PA",
      "area": "Pittsburgh",
      "postal_code": "15222",
      "country": "US",
      "phone": "4123943400x",
      "lat": 40.441146,
      "lng": -80.001505,
      "price": 3,
      "reserve_url": "http://www.opentable.com/single.aspx?rid=77836",
      "mobile_reserve_url": "http://mobile.opentable.com/opentable/?restId=77836",
      "image_url": "https://www.opentable.com/img/restimages/77836.jpg"
   },
   {
      "id": 106051,
      "name": "Il Pizzaiolo - Mt. Lebanon",
      "address": "703 Washington Road",
      "city": "Mount Lebanon",
      "state": "PA",
      "area": "Pittsburgh",
      "postal_code": "15228",
      "country": "US",
      "phone": "4123444123",
      "lat": 40.380379,
      "lng": -80.04461,
      "price": 3,
      "reserve_url": "http://www.opentable.com/single.aspx?rid=106051",
      "mobile_reserve_url": "http://mobile.opentable.com/opentable/?restId=106051",
      "image_url": "https://www.opentable.com/img/restimages/106051.jpg"
   },
   {
      "id": 100042,
      "name": "Olive Press",
      "address": "1111 Airport Boulevard",
      "city": "Pittsburgh",
      "state": "PA",
      "area": "Pittsburgh",
      "postal_code": "15231",
      "country": "US",
      "phone": "7248996073",
      "lat": 40.496406,
      "lng": -80.259493,
      "price": 3,
      "reserve_url": "http://www.opentable.com/single.aspx?rid=100042",
      "mobile_reserve_url": "http://mobile.opentable.com/opentable/?restId=100042",
      "image_url": "https://www.opentable.com/img/restimages/100042.jpg"
   },
   {
      "id": 3696,
      "name": "SOBA Lounge",
      "address": "5847 Elllsworth Ave",
      "city": "Pittsburgh",
      "state": "PA",
      "area": "Pittsburgh",
      "postal_code": "15232",
      "country": "US",
      "phone": "4123625656",
      "lat": 40.456949,
      "lng": -79.929585,
      "price": 3,
      "reserve_url": "http://www.opentable.com/single.aspx?rid=3696",
      "mobile_reserve_url": "http://mobile.opentable.com/opentable/?restId=3696",
      "image_url": "https://www.opentable.com/img/restimages/3696.jpg"
   },
   {
      "id": 96322,
      "name": "Umi Japanese Restaurant",
      "address": "5849 Ellsworth Ave",
      "city": "Pittsburgh",
      "state": "PA",
      "area": "Pittsburgh",
      "postal_code": "15232",
      "country": "US",
      "phone": "4123626198",
      "lat": 40.457075,
      "lng": -79.929414,
      "price": 4,
      "reserve_url": "http://www.opentable.com/single.aspx?rid=96322",
      "mobile_reserve_url": "http://mobile.opentable.com/opentable/?restId=96322",
      "image_url": "https://www.opentable.com/img/restimages/96322.jpg"
   },
   {
      "id": 138898,
      "name": "Mansions on Fifth Hotel",
      "address": "5105 Fifth Avenue",
      "city": "Pittsburgh",
      "state": "PA",
      "area": "Pittsburgh",
      "postal_code": "15232",
      "country": "US",
      "phone": "4123815105x",
      "lat": 40.447819,
      "lng": -79.938378,
      "price": 3,
      "reserve_url": "http://www.opentable.com/single.aspx?rid=138898",
      "mobile_reserve_url": "http://mobile.opentable.com/opentable/?restId=138898",
      "image_url": "https://www.opentable.com/img/restimages/138898.jpg"
   },
   {
      "id": 98671,
      "name": "Green Forest Restaurant",
      "address": "655 Rodi Road",
      "city": "Penn Hills",
      "state": "PA",
      "area": "Pittsburgh",
      "postal_code": "15235",
      "country": "US",
      "phone": "4123715560x",
      "lat": 40.446923,
      "lng": -79.827572,
      "price": 4,
      "reserve_url": "http://www.opentable.com/single.aspx?rid=98671",
      "mobile_reserve_url": "http://mobile.opentable.com/opentable/?restId=98671",
      "image_url": "https://www.opentable.com/img/restimages/98671.jpg"
   },
   {
      "id": 47404,
      "name": "Donato's Restaurant",
      "address": "46 Fox Chapel Rd",
      "city": "Pittsburgh",
      "state": "PA",
      "area": "Pittsburgh",
      "postal_code": "15238",
      "country": "US",
      "phone": "4127813700x",
      "lat": 40.488524,
      "lng": -79.883021,
      "price": 3,
      "reserve_url": "http://www.opentable.com/single.aspx?rid=47404",
      "mobile_reserve_url": "http://mobile.opentable.com/opentable/?restId=47404",
      "image_url": "https://www.opentable.com/img/restimages/47404.jpg"
   }
]