[
   {
      "id": 103483,
      "name": "Tender Bar + Kitchen",
      "address": "4300 Butler Street",
      "city": "Pittsburgh",
      "state": "PA",
      "area": "Pittsburgh",
      "postal_code": "15201",
      "country": "US",
      "phone": "4124029522x",
      "lat": 40.470578,
      "lng": -79.960043,
      "price": 2,
      "reserve_url": "http://www.opentable.com/single.aspx?rid=103483",
      "mobile_reserve_url": "http://mobile.opentable.com/opentable/?restId=103483",
      "image_url": "https://www.opentable.com/img/restimages/103483.jpg"
   },
   {
      "id": 40486,
      "name": "Tamari",
      "address": "3519 Butler Street",
      "city": "Pittsburgh",
      "state": "PA",
      "area": "Pittsburgh",
      "postal_code": "15201",
      "country": "US",
      "phone": "4123253435x",
      "lat": 40.464562,
      "lng": -79.965936,
      "price": 2,
      "reserve_url": "http://www.opentable.com/single.aspx?rid=40486",
      "mobile_reserve_url": "http://mobile.opentable.com/opentable/?restId=40486",
      "image_url": "https://www.opentable.com/img/restimages/40486.jpg"
   },
   {
      "id": 7587,
      "name": "Ibiza Tapas Restaurant & Wine Bar",
      "address": "2224 East Carson Street",
      "city": "Pittsburgh",
      "state": "PA",
      "area": "Pittsburgh",
      "postal_code": "15203",
      "country": "US",
      "phone": "4123252227",
      "lat": 40.428384,
      "lng": -79.973621,
      "price": 2,
      "reserve_url": "http://www.opentable.com/single.aspx?rid=7587",
      "mobile_reserve_url": "http://mobile.opentable.com/opentable/?restId=7587",
      "image_url": "https://www.opentable.com/img/restimages/7587.jpg"
   },
   {
      "id": 4520,
      "name": "Nakama Japanese Steakhouse & Sushi Bar",
      "address": "1611 E. Carson Street",
      "city": "Pittsburgh",
      "state": "PA",
      "area": "Pittsburgh",
      "postal_code": "15203",
      "country": "US",
      "phone": "412-381-6000x",
      "lat": 40.428867,
      "lng": -79.982634,
      "price": 2,
      "reserve_url": "http://www.opentable.com/single.aspx?rid=4520",
      "mobile_reserve_url": "http://mobile.opentable.com/opentable/?restId=4520",
      "image_url": "https://www.opentable.com/img/restimages/4520.jpg"
   },
   {
      "id": 6794,
      "name": "McCormick & Schmick's Seafood - Pittsburgh South Side",
      "address": "2667 Sidney Street",
      "city": "Pittsburgh",
      "state": "PA",
      "area": "Pittsburgh",
      "postal_code": "15203",
      "country": "US",
      "phone": "4124323260x",
      "lat": 40.428012,
      "lng": -79.966843,
      "price": 2,
      "reserve_url": "http://www.opentable.com/single.aspx?rid=6794",
      "mobile_reserve_url": "http://mobile.opentable.com/opentable/?restId=6794",
      "image_url": "https://www.opentable.com/img/restimages/6794.jpg"
   },
   {
      "id": 60085,
      "name": "Ciao! 2 An Italian Cafe",
      "address": "289 Settlers Ridge Center Drive",
      "city": "Pittsburgh",
      "state": "PA",
      "area": "Pittsburgh",
      "postal_code": "15205",
      "country": "US",
      "phone": "4127889463x",
      "lat": 40.438325,
      "lng": -80.148644,
      "price": 2,
      "reserve_url": "http://www.opentable.com/single.aspx?rid=60085",
      "mobile_reserve_url": "http://mobile.opentable.com/opentable/?restId=60085",
      "image_url": "https://www.opentable.com/img/restimages/60085.jpg"
   },
   {
      "id": 53428,
      "name": "Buca di Beppo - Pittsburgh - Robinson Town Center",
      "address": "6600 Robinson Town Centre Drive",
      "city": "Pittsburgh",
      "state": "PA",
      "area": "Pittsburgh",
      "postal_code": "15205",
      "country": "US",
      "phone": "4127888444x",
      "lat": 40.456076,
      "lng": -80.167501,
      "price": 2,
      "reserve_url": "http://www.opentable.com/single.aspx?rid=53428",
      "mobile_reserve_url": "http://mobile.opentable.com/opentable/?restId=53428",
      "image_url": "https://www.opentable.com/img/restimages/53428.jpg"
   },
   {
      "id": 71188,
      "name": "Verde Mexican Kitchen & Cantina",
      "address": "5491 Penn Ave,",
      "city": "Pittsburgh",
      "state": "PA",
      "area": "Pittsburgh",
      "postal_code": "15206",
      "country": "US",
      "phone": "4124048487x",
      "lat": 40.464543,
      "lng": -79.932625,
      "price": 2,
      "reserve_url": "http://www.opentable.com/single.aspx?rid=71188",
      "mobile_reserve_url": "http://mobile.opentable.com/opentable/?restId=71188",
      "image_url": "https://www.opentable.com/img/restimages/71188.jpg"
   },
   {
      "id": 109984,
      "name": "Pino's Contemporary Italian Restaurant & Wine Bar",
      "address": "6738 Reynolds Street",
      "city": "Pittsburgh",
      "state": "PA",
      "area": "Pittsburgh",
      "postal_code": "15206",
      "country": "US",
      "phone": "4123611336x",
      "lat": 40.450249,
      "lng": -79.914499,
      "price": 2,
      "reserve_url": "http://www.opentable.com/single.aspx?rid=109984",
      "mobile_reserve_url": "http://mobile.opentable.com/opentable/?restId=109984",
      "image_url": "https://www.opentable.com/img/restimages/109984.jpg"
   },
   {
      "id": 79363,
      "name": "Paris 66",
      "address": "6018 Penn Circle South",
      "city": "Pittsburgh",
      "state": "PA",
      "area": "Pittsburgh",
      "postal_code": "15206",
      "country": "US",
      "phone": "4124048166",
      "lat": 40.460103,
      "lng": -79.924511,
      "price": 2,
      "reserve_url": "http://www.opentable.com/single.aspx?rid=79363",
      "mobile_reserve_url": "http://mobile.opentable.com/opentable/?restId=79363",
      "image_url": "https://www.opentable.com/img/restimages/79363.jpg"
   },
   {
      "id": 47380,
      "name": "Spoon Pittsburgh",
      "address": "134 South Highland Avenue",
      "city": "Pittsburgh",
      "state": "PA",
      "area": "Pittsburgh",
      "postal_code": "15206",
      "country": "US",
      "phone": "4123626001",
      "lat": 40.460026,
      "lng": -79.925385,
      "price": 2,
      "reserve_url": "http://www.opentable.com/single.aspx?rid=47380",
      "mobile_reserve_url": "http://mobile.opentable.com/opentable/?restId=47380",
      "image_url": "https://www.opentable.com/img/restimages/47380.jpg"
   },
   {
      "id": 97225,
      "name": "Atria's - PNC Park",
      "address": "103 Federal St",
      "city": "Pittsburgh",
      "state": "PA",
      "area": "Pittsburgh",
      "postal_code": "15212",
      "country": "US",
      "phone": "4123221850",
      "lat": 40.44807,
      "lng": -80.004233,
      "price": 2,
      "reserve_url": "http://www.opentable.com/single.aspx?rid=97225",
      "mobile_reserve_url": "http://mobile.opentable.com/opentable/?restId=97225",
      "image_url": "https://www.opentable.com/img/restimages/97225.jpg"
   },
   {
      "id": 67624,
      "name": "Legume",
      "address": "214 North Craig St.",
      "city": "Pittsburgh",
      "state": "PA",
      "area": "Pittsburgh",
      "postal_code": "15213",
      "country": "US",
      "phone": "4126212700x",
      "lat": 40.450315,
      "lng": -79.951034,
      "price": 2,
      "reserve_url": "http://www.opentable.com/single.aspx?rid=67624",
      "mobile_reserve_url": "http://mobile.opentable.com/opentable/?restId=67624",
      "image_url": "https://www.opentable.com/img/restimages/67624.jpg"
   },
   {
      "id": 146512,
      "name": "Crested Duck Charcuterie",
      "address": "1603 Broadway Avenue",
      "city": "Pittsburgh",
      "state": "PA",
      "area": "Pittsburgh",
      "postal_code": "15216",
      "country": "US",
      "phone": "4128929983x",
      "lat": 40.410389,
      "lng": -80.024363,
      "price": 2,
      "reserve_url": "http://www.opentable.com/single.aspx?rid=146512",
      "mobile_reserve_url": "http://mobile.opentable.com/opentable/?restId=146512",
      "image_url": "https://www.opentable.com/img/restimages/146512.jpg"
   },
   {
      "id": 97210,
      "name": "Atria's - Mt. Lebanon",
      "address": "110 Beverly Rd",
      "city": "Mount Lebanon",
      "state": "PA",
      "area": "Pittsburgh",
      "postal_code": "15216",
      "country": "US",
      "phone": "4123432411",
      "lat": 40.393597,
      "lng": -80.046666,
      "price": 2,
      "reserve_url": "http://www.opentable.com/single.aspx?rid=97210",
      "mobile_reserve_url": "http://mobile.opentable.com/opentable/?restId=97210",
      "image_url": "https://www.opentable.com/img/restimages/97210.jpg"
   },
   {
      "id": 148411,
      "name": "Naya",
      "address": "2018 Murray Ave",
      "city": "Pittsburgh",
      "state": "PA",
      "area": "Pittsburgh",
      "postal_code": "15217",
      "country": "US",
      "phone": "4124211920x",
      "lat": 40.434215,
      "lng": -79.923045,
      "price": 2,
      "reserve_url": "http://www.opentable.com/single.aspx?rid=148411",
      "mobile_reserve_url": "http://mobile.opentable.com/opentable/?restId=148411",
      "image_url": "https://www.opentable.com/img/restimages/148411.jpg"
   },
   {
      "id": 148177,
      "name": "Rivers Club",
      "address": "301 Grant Street",
      "city": "Pittsburgh",
      "state": "PA",
      "area": "Pittsburgh",
      "postal_code": "15219",
      "country": "US",
      "phone": "4123915227",
      "lat": 40.438069,
      "lng": -79.998282,
      "price": 2,
      "reserve_url": "http://www.opentable.com/single.aspx?rid=148177",
      "mobile_reserve_url": "http://mobile.opentable.com/opentable/?restId=148177",
      "image_url": "https://www.opentable.com/img/restimages/148177.jpg"
   },
   {
      "id": 28636,
      "name": "Bigelow Grille",
      "address": "Doubletree Pittsburgh",
      "city": "Pittsburgh",
      "state": "PA",
      "area": "Pittsburgh",
      "postal_code": "15219",
      "country": "US",
      "phone": "4122815013x",
      "lat": 40.440886,
      "lng": -79.994276,
      "price": 2,
      "reserve_url": "http://www.opentable.com/single.aspx?rid=28636",
      "mobile_reserve_url": "http://mobile.opentable.com/opentable/?restId=28636",
      "image_url": "https://www.opentable.com/img/restimages/28636.jpg"
   },
   {
      "id": 28036,
      "name": "The Terrace Room",
      "address": "530 William Penn Place",
      "city": "Pittsburgh",
      "state": "PA",
      "area": "Pittsburgh",
      "postal_code": "15219",
      "country": "US",
      "phone": "4125535235x",
      "lat": 40.440697,
      "lng": -79.996869,
      "price": 2,
      "reserve_url": "http://www.opentable.com/single.aspx?rid=28036",
      "mobile_reserve_url": "http://mobile.opentable.com/opentable/?restId=28036",
      "image_url": "https://www.opentable.com/img/restimages/28036.jpg"
   },
   {
      "id": 53431,
      "name": "Buca di Beppo - Pittsburgh - Station Square",
      "address": "3 Station Square",
      "city": "Pittsburgh",
      "state": "PA",
      "area": "Pittsburgh",
      "postal_code": "15219",
      "country": "US",
      "phone": "4124719463x",
      "lat": 40.43101,
      "lng": -80.001647,
      "price": 2,
      "reserve_url": "http://www.opentable.com/single.aspx?rid=53431",
      "mobile_reserve_url": "http://mobile.opentable.com/opentable/?restId=53431",
      "image_url": "https://www.opentable.com/img/restimages/53431.jpg"
   },
   {
      "id": 87016,
      "name": "Benihana - Pittsburgh",
      "address": "2100 Greentree Rd",
      "city": "Pittsburgh",
      "state": "PA",
      "area": "Pittsburgh",
      "postal_code": "15220",
      "country": "US",
      "phone": "4122762100x",
      "lat": 40.392287,
      "lng": -80.070269,
      "price": 2,
      "reserve_url": "http://www.opentable.com/single.aspx?rid=87016",
      "mobile_reserve_url": "http://mobile.opentable.com/opentable/?restId=87016",
      "image_url": "https://www.opentable.com/img/restimages/87016.jpg"
   },
   {
      "id": 144529,
      "name": "Tavern 245",
      "address": "245 Fourth Avenue",
      "city": "Pittsburgh",
      "state": "PA",
      "area": "Pittsburgh",
      "postal_code": "15222",
      "country": "US",
      "phone": "4122814345x",
      "lat": 40.439656,
      "lng": -80.001567,
      "price": 2,
      "reserve_url": "http://www.opentable.com/single.aspx?rid=144529",
      "mobile_reserve_url": "http://mobile.opentable.com/opentable/?restId=144529",
      "image_url": "https://www.opentable.com/img/restimages/144529.jpg"
   },
   {
      "id": 15922,
      "name": "Lidia's Pittsburgh",
      "address": "1400 Smallman Street",
      "city": "Pittsburgh",
      "state": "PA",
      "area": "Pittsburgh",
      "postal_code": "15222",
      "country": "US",
      "phone": "4125520150x",
      "lat": 40.447972,
      "lng": -79.990524,
      "price": 2,
      "reserve_url": "http://www.opentable.com/single.aspx?rid=15922",
      "mobile_reserve_url": "http://mobile.opentable.com/opentable/?restId=15922",
      "image_url": "https://www.opentable.com/img/restimages/15922.jpg"
   },
   {
      "id": 13990,
      "name": "McCormick & Schmick's Seafood - Pittsburgh Downtown",
      "address": "301 Fifth Avenue",
      "city": "Pittsburgh",
      "state": "PA",
      "area": "Pittsburgh",
      "postal_code": "15222",
      "country": "US",
      "phone": "4122016992x",
      "lat": 40.440743,
      "lng": -80.00016,
      "price": 2,
      "reserve_url": "http://www.opentable.com/single.aspx?rid=13990",
      "mobile_reserve_url": "http://mobile.opentable.com/opentable/?restId=13990",
      "image_url": "https://www.opentable.com/img/restimages/13990.jpg"
   },
   {
      "id": 136159,
      "name": "Spaghetti Warehouse - Pittsburgh",
      "address": "2601 Smallman St.",
      "city": "Pittsburgh",
      "state": "PA",
      "area": "Pittsburgh",
      "postal_code": "15222",
      "country": "US",
      "phone": "4122616511",
      "lat": 40.455916,
      "lng": -79.97927,
      "price": 2,
      "reserve_url": "http://www.opentable.com/single.aspx?rid=136159",
      "mobile_reserve_url": "http://mobile.opentable.com/opentable/?restId=136159",
      "image_url": "https://www.opentable.com/img/restimages/136159.jpg"
   },
   {
      "id": 8075,
      "name": "Original Fish Market - Westin Pittsburgh",
      "address": "1001 Liberty Avenue",
      "city": "Pittsburgh",
      "state": "PA",
      "area": "Pittsburgh",
      "postal_code": "15222",
      "country": "US",
      "phone": "8773283474x",
      "lat": 40.443655,
      "lng": -79.995241,
      "price": 2,
      "reserve_url": "http://www.opentable.com/single.aspx?rid=8075",
      "mobile_reserve_url": "http://mobile.opentable.com/opentable/?restId=8075",
      "image_url": "https://www.opentable.com/img/restimages/8075.jpg"
   },
   {
      "id": 4037,
      "name": "Sonoma Grille Pittsburgh",
      "address": "947 Penn Ave.",
      "city": "Pittsburgh",
      "state": "PA",
      "area": "Pittsburgh",
      "postal_code": "15222",
      "country": "US",
      "phone": "4126971336",
      "lat": 40.444124,
      "lng": -79.996898,
      "price": 2,
      "reserve_url": "http://www.opentable.com/single.aspx?rid=4037",
      "mobile_reserve_url": "http://mobile.opentable.com/opentable/?restId=4037",
      "image_url": "https://www.opentable.com/img/restimages/4037.jpg"
   },
   {
      "id": 115627,
      "name": "Ten Penny",
      "address": "960 Penn Avenue",
      "city": "Pittsburgh",
      "state": "PA",
      "area": "Pittsburgh",
      "postal_code": "15222",
      "country": "US",
      "phone": "4123188000x",
      "lat": 40.444329,
      "lng": -79.995949,
      "price": 2,
      "reserve_url": "http://www.opentable.com/single.aspx?rid=115627",
      "mobile_reserve_url": "http://mobile.opentable.com/opentable/?restId=115627",
      "image_url": "https://www.opentable.com/img/restimages/115627.jpg"
   },
   {
      "id": 79378,
      "name": "Kaya",
      "address": "2000 Smallman Street",
      "city": "Pittsburgh",
      "state": "PA",
      "area": "Pittsburgh",
      "postal_code": "15222",
      "country": "US",
      "phone": "4122616565",
      "lat": 40.451666,
      "lng": -79.984239,
      "price": 2,
      "reserve_url": "http://www.opentable.com/single.aspx?rid=79378",
      "mobile_reserve_url": "http://mobile.opentable.com/opentable/?restId=79378",
      "image_url": "https://www.opentable.com/img/restimages/79378.jpg"
   },
   {
      "id": 115552,
      "name": "Grit & Grace",
      "address": "535 Liberty Avenue",
      "city": "Pittsburgh",
      "state": "PA",
      "area": "Pittsburgh",
      "postal_code": "15222",
      "country": "US",
      "phone": "4122814748x",
      "lat": 40.442035,
      "lng": -80.002556,
      "price": 2,
      "reserve_url": "http://www.opentable.com/single.aspx?rid=115552",
      "mobile_reserve_url": "http://mobile.opentable.com/opentable/?restId=115552",
      "image_url": "https://www.opentable.com/img/restimages/115552.jpg"
   },
   {
      "id": 104590,
      "name": "Butcher and The Rye",
      "address": "212 6th Street",
      "city": "Pittsburgh",
      "state": "PA",
      "area": "Pittsburgh",
      "postal_code": "15222",
      "country": "US",
      "phone": "4123912752",
      "lat": 40.442338,
      "lng": -80.002088,
      "price": 2,
      "reserve_url": "http://www.opentable.com/single.aspx?rid=104590",
      "mobile_reserve_url": "http://mobile.opentable.com/opentable/?restId=104590",
      "image_url": "https://www.opentable.com/img/restimages/104590.jpg"
   },
   {
      "id": 69259,
      "name": "Sienna",
      "address": "22 Market Square",
      "city": "Pittsburgh",
      "state": "PA",
      "area": "Pittsburgh",
      "postal_code": "15222",
      "country": "US",
      "phone": "4122816363x",
      "lat": 40.440807,
      "lng": -80.002063,
      "price": 2,
      "reserve_url": "http://www.opentable.com/single.aspx?rid=69259",
      "mobile_reserve_url": "http://mobile.opentable.com/opentable/?restId=69259",
      "image_url": "https://www.opentable.com/img/restimages/69259.jpg"
   },
   {
      "id": 40483,
      "name": "Habitat",
      "address": "510 Market Street",
      "city": "Pittsburgh",
      "state": "PA",
      "area": "Pittsburgh",
      "postal_code": "15222",
      "country": "US",
      "phone": "4127738848x",
      "lat": 40.441433,
      "lng": -80.002052,
      "price": 2,
      "reserve_url": "http://www.opentable.com/single.aspx?rid=40483",
      "mobile_reserve_url": "http://mobile.opentable.com/opentable/?restId=40483",
      "image_url": "https://www.opentable.com/img/restimages/40483.jpg"
   },
   {
      "id": 36046,
      "name": "Braddock's American Brasserie",
      "address": "107 Sixth Street",
      "city": "Pittsburgh",
      "state": "PA",
      "area": "Pittsburgh",
      "postal_code": "15222",
      "country": "US",
      "phone": "4129922005",
      "lat": 40.443806,
      "lng": -80.002442,
      "price": 2,
      "reserve_url": "http://www.opentable.com/single.aspx?rid=36046",
      "mobile_reserve_url": "http://mobile.opentable.com/opentable/?restId=36046",
      "image_url": "https://www.opentable.com/img/restimages/36046.jpg"
   },
   {
      "id": 140935,
      "name": "August Henry's City Saloon",
      "address": "946 Penn Ave",
      "city": "Pittsburgh",
      "state": "PA",
      "area": "Pittsburgh",
      "postal_code": "15222",
      "country": "US",
      "phone": "4127653270",
      "lat": 40.444107,
      "lng": -79.996793,
      "price": 2,
      "reserve_url": "http://www.opentable.com/single.aspx?rid=140935",
      "mobile_reserve_url": "http://mobile.opentable.com/opentable/?restId=140935",
      "image_url": "https://www.opentable.com/img/restimages/140935.jpg"
   },
   {
      "id": 40390,
      "name": "Caffe Amante",
      "address": "120 5th Avenue",
      "city": "Pittsburgh",
      "state": "PA",
      "area": "Pittsburgh",
      "postal_code": "15222",
      "country": "US",
      "phone": "412-391-1226x",
      "lat": 40.442228,
      "lng": -80.003107,
      "price": 2,
      "reserve_url": "http://www.opentable.com/single.aspx?rid=40390",
      "mobile_reserve_url": "http://mobile.opentable.com/opentable/?restId=40390",
      "image_url": "https://www.opentable.com/img/restimages/40390.jpg"
   },
   {
      "id": 59623,
      "name": "Nola on the Square",
      "address": "24 Market Square",
      "city": "Pittsburgh",
      "state": "PA",
      "area": "Pittsburgh",
      "postal_code": "15222",
      "country": "US",
      "phone": "412-471-9100x",
      "lat": 40.440815,
      "lng": -80.002084,
      "price": 2,
      "reserve_url": "http://www.opentable.com/single.aspx?rid=59623",
      "mobile_reserve_url": "http://mobile.opentable.com/opentable/?restId=59623",
      "image_url": "https://www.opentable.com/img/restimages/59623.jpg"
   },
   {
      "id": 59533,
      "name": "Sausalido - Pittsburgh",
      "address": "4621 Liberty Ave",
      "city": "Pittsburgh",
      "state": "PA",
      "area": "Pittsburgh",
      "postal_code": "15224",
      "country": "US",
      "phone": "4126834575",
      "lat": 40.462416,
      "lng": -79.950167,
      "price": 2,
      "reserve_url": "http://www.opentable.com/single.aspx?rid=59533",
      "mobile_reserve_url": "http://mobile.opentable.com/opentable/?restId=59533",
      "image_url": "https://www.opentable.com/img/restimages/59533.jpg"
   },
   {
      "id": 31648,
      "name": "Toast kitchen & wine bar",
      "address": "5102 Baum Blvd",
      "city": "Pittsburgh",
      "state": "PA",
      "area": "Pittsburgh",
      "postal_code": "15224",
      "country": "US",
      "phone": "4122242579x",
      "lat": 40.455289,
      "lng": -79.943671,
      "price": 2,
      "reserve_url": "http://www.opentable.com/single.aspx?rid=31648",
      "mobile_reserve_url": "http://mobile.opentable.com/opentable/?restId=31648",
      "image_url": "https://www.opentable.com/img/restimages/31648.jpg"
   },
   {
      "id": 19531,
      "name": "Mitchell's Fish Market - Galleria - Pittsburgh",
      "address": "1500 Washington Road",
      "city": "Pittsburgh",
      "state": "PA",
      "area": "Pittsburgh",
      "postal_code": "15228",
      "country": "US",
      "phone": "4125713474",
      "lat": 40.355923,
      "lng": -80.050381,
      "price": 2,
      "reserve_url": "http://www.opentable.com/single.aspx?rid=19531",
      "mobile_reserve_url": "http://mobile.opentable.com/opentable/?restId=19531",
      "image_url": "https://www.opentable.com/img/restimages/19531.jpg"
   },
   {
      "id": 83836,
      "name": "Walnut Grill - Mt Lebanon",
      "address": "660 Washington Rd.",
      "city": "Mount Lebanon",
      "state": "PA",
      "area": "Pittsburgh",
      "postal_code": "15228",
      "country": "US",
      "phone": "4126680951",
      "lat": 40.380923,
      "lng": -80.044674,
      "price": 2,
      "reserve_url": "http://www.opentable.com/single.aspx?rid=83836",
      "mobile_reserve_url": "http://mobile.opentable.com/opentable/?restId=83836",
      "image_url": "https://www.opentable.com/img/restimages/83836.jpg"
   },
   {
      "id": 93916,
      "name": "Open Bottle Bistro",
      "address": "5884 Ellsworth Avenue",
      "city": "Pittsburgh",
      "state": "PA",
      "area": "Pittsburgh",
      "postal_code": "15232",
      "country": "US",
      "phone": "4124508217",
      "lat": 40.457682,
      "lng": -79.927911,
      "price": 2,
      "reserve_url": "http://www.opentable.com/single.aspx?rid=93916",
      "mobile_reserve_url": "http://mobile.opentable.com/opentable/?restId=93916",
      "image_url": "https://www.opentable.com/img/restimages/93916.jpg"
   },
   {
      "id": 151084,
      "name": "The Yard Gastropub",
      "address": "736 Bellefonte St",
      "city": "Pittsburgh",
      "state": "PA",
      "area": "Pittsburgh",
      "postal_code": "15232",
      "country": "US",
      "phone": "4127096351",
      "lat": 40.451369,
      "lng": -79.93418,
      "price": 2,
      "reserve_url": "http://www.opentable.com/single.aspx?rid=151084",
      "mobile_reserve_url": "http://mobile.opentable.com/opentable/?restId=151084",
      "image_url": "https://www.opentable.com/img/restimages/151084.jpg"
   },
   {
      "id": 97450,
      "name": "Atria's - Pleasant Hills",
      "address": "10 Old Clairton Road",
      "city": "Pittsburgh",
      "state": "PA",
      "area": "Pittsburgh",
      "postal_code": "15236",
      "country": "US",
      "phone": "4127148670",
      "lat": 40.340052,
      "lng": -79.965678,
      "price": 2,
      "reserve_url": "http://www.opentable.com/single.aspx?rid=97450",
      "mobile_reserve_url": "http://mobile.opentable.com/opentable/?restId=97450",
      "image_url": "https://www.opentable.com/img/restimages/97450.jpg"
   },
   {
      "id": 4120,
      "name": "Willow",
      "address": "634 Camp Horne Rd.",
      "city": "Pittsburgh",
      "state": "PA",
      "area": "Pittsburgh",
      "postal_code": "15237",
      "country": "US",
      "phone": "4128471007x",
      "lat": 40.5224,
      "lng": -80.077516,
      "price": 2,
      "reserve_url": "http://www.opentable.com/single.aspx?rid=4120",
      "mobile_reserve_url": "http://mobile.opentable.com/opentable/?restId=4120",
      "image_url": "https://www.opentable.com/img/restimages/4120.jpg"
   },
   {
      "id": 114142,
      "name": "Nancetta's",
      "address": "1200 Old Freeport Road",
      "city": "Fox Chapel",
      "state": "PA",
      "area": "Pittsburgh",
      "postal_code": "15238",
      "country": "US",
      "phone": "4127812220x",
      "lat": 40.48777,
      "lng": -79.878162,
      "price": 2,
      "reserve_url": "http://www.opentable.com/single.aspx?rid=114142",
      "mobile_reserve_url": "http://mobile.opentable.com/opentable/?restId=114142",
      "image_url": "https://www.opentable.com/img/restimages/114142.jpg"
   },
   {
      "id": 97219,
      "name": "Atria's - O'Hara Township",
      "address": "1374 Freeport Rd",
      "city": "Pittsburgh",
      "state": "PA",
      "area": "Pittsburgh",
      "postal_code": "15238",
      "country": "US",
      "phone": "4129631514x",
      "lat": 40.489187,
      "lng": -79.872811,
      "price": 2,
      "reserve_url": "http://www.opentable.com/single.aspx?rid=97219",
      "mobile_reserve_url": "http://mobile.opentable.com/opentable/?restId=97219",
      "image_url": "https://www.opentable.com/img/restimages/97219.jpg"
   },
   {
      "id": 86659,
      "name": "Andora",
      "address": "599 Dorseyville Road",
      "city": "Pittsburgh",
      "state": "PA",
      "area": "Pittsburgh",
      "postal_code": "15238",
      "country": "US",
      "phone": "4129671900",
      "lat": 40.537576,
      "lng": -79.912299,
      "price": 2,
      "reserve_url": "http://www.opentable.com/single.aspx?rid=86659",
      "mobile_reserve_url": "http://mobile.opentable.com/opentable/?restId=86659",
      "image_url": "https://www.opentable.com/img/restimages/86659.jpg"
   },
   {
      "id": 34399,
      "name": "Walnut Grill - Fox Chapel",
      "address": "911 Freeport Rd.",
      "city": "Pittsburgh",
      "state": "PA",
      "area": "Pittsburgh",
      "postal_code": "15238",
      "country": "US",
      "phone": "4127824768",
      "lat": 40.486868,
      "lng": -79.887587,
      "price": 2,
      "reserve_url": "http://www.opentable.com/single.aspx?rid=34399",
      "mobile_reserve_url": "http://mobile.opentable.com/opentable/?restId=34399",
      "image_url": "https://www.opentable.com/img/restimages/34399.jpg"
   },
   {
      "id": 98356,
      "name": "Latitude 360 Pittsburgh",
      "address": "200 Quinn Dr",
      "city": "Pittsburgh",
      "state": "PA",
      "area": "Pittsburgh",
      "postal_code": "15275",
      "country": "US",
      "phone": "4126935555",
      "lat": 40.446179,
      "lng": -80.177847,
      "price": 2,
      "reserve_url": "http://www.opentable.com/single.aspx?rid=98356",
      "mobile_reserve_url": "http://mobile.opentable.com/opentable/?restId=98356",
      "image_url": "https://www.opentable.com/img/restimages/98356.jpg"
   }
]